<metro>
    <nombre>Aeroport</nombre>
    <id>121</id>
    <latitud>39.4923667908</latitud>
    <longitud>-0.4749194384</longitud>
    <lineas>3,5</lineas>
</metro><metro>
<nombre>Aeroport</nombre>
<id>121</id>
<latitud>39.4923667908</latitud>
<longitud>-0.4749194384</longitud>
<lineas>3,5</lineas>
</metro><metro>
<nombre>Aeroport</nombre>
<id>121</id>
<latitud>39.4923667908</latitud>
<longitud>-0.4749194384</longitud>
<lineas>3,5</lineas>
</metro><metro>
<nombre>Aeroport</nombre>
<id>121</id>
<latitud>39.4923667908</latitud>
<longitud>-0.4749194384</longitud>
<lineas>3,5</lineas>
</metro><metro>
<nombre>Aeroport</nombre>
<id>121</id>
<latitud>39.4923667908</latitud>
<longitud>-0.4749194384</longitud>
<lineas>3,5</lineas>
</metro><metro>
<nombre>Aeroport</nombre>
<id>121</id>
<latitud>39.4923667908</latitud>
<longitud>-0.4749194384</longitud>
<lineas>3,5</lineas>
</metro><metro>
<nombre>Aeroport</nombre>
<id>121</id>
<latitud>39.4923667908</latitud>
<longitud>-0.4749194384</longitud>
<lineas>3,5</lineas>
</metro><metro>
<nombre>Alginet</nombre>
<id>43</id>
<latitud>39.2647552490</latitud>
<longitud>-0.4745583236</longitud>
<lineas>1</lineas>
</metro><metro>
<nombre>Alginet</nombre>
<id>43</id>
<latitud>39.2647552490</latitud>
<longitud>-0.4745583236</longitud>
<lineas>1</lineas>
</metro><metro>
<nombre>Alginet</nombre>
<id>43</id>
<latitud>39.2647552490</latitud>
<longitud>-0.4745583236</longitud>
<lineas>1</lineas>
</metro><metro>
<nombre>Alginet</nombre>
<id>43</id>
<latitud>39.2647552490</latitud>
<longitud>-0.4745583236</longitud>
<lineas>1</lineas>
</metro><metro>
<nombre>Alginet</nombre>
<id>43</id>
<latitud>39.2647552490</latitud>
<longitud>-0.4745583236</longitud>
<lineas>1</lineas>
</metro><metro>
<nombre>Alginet</nombre>
<id>43</id>
<latitud>39.2647552490</latitud>
<longitud>-0.4745583236</longitud>
<lineas>1</lineas>
</metro><metro>
<nombre>Av. del Cid</nombre>
<id>18</id>
<latitud>39.4682197571</latitud>
<longitud>-0.3975749910</longitud>
<lineas>3,5</lineas>
</metro><metro>
<nombre>Av. del Cid</nombre>
<id>18</id>
<latitud>39.4682197571</latitud>
<longitud>-0.3975749910</longitud>
<lineas>3,5</lineas>
</metro><metro>
<nombre>Av. del Cid</nombre>
<id>18</id>
<latitud>39.4682197571</latitud>
<longitud>-0.3975749910</longitud>
<lineas>3,5</lineas>
</metro><metro>
<nombre>Av. del Cid</nombre>
<id>18</id>
<latitud>39.4682197571</latitud>
<longitud>-0.3975749910</longitud>
<lineas>3,5</lineas>
</metro><metro>
<nombre>Av. del Cid</nombre>
<id>18</id>
<latitud>39.4682197571</latitud>
<longitud>-0.3975749910</longitud>
<lineas>3,5</lineas>
</metro><metro>
<nombre>Av. del Cid</nombre>
<id>18</id>
<latitud>39.4682197571</latitud>
<longitud>-0.3975749910</longitud>
<lineas>3,5</lineas>
</metro><metro>
<nombre>Av. del Cid</nombre>
<id>18</id>
<latitud>39.4682197571</latitud>
<longitud>-0.3975749910</longitud>
<lineas>3,5</lineas>
</metro><metro>
<nombre>Beniferri</nombre>
<id>54</id>
<latitud>39.4910316467</latitud>
<longitud>-0.3993369341</longitud>
<lineas>1</lineas>
</metro><metro>
<nombre>Beniferri</nombre>
<id>54</id>
<latitud>39.4910316467</latitud>
<longitud>-0.3993369341</longitud>
<lineas>1</lineas>
</metro><metro>
<nombre>Beniferri</nombre>
<id>54</id>
<latitud>39.4910316467</latitud>
<longitud>-0.3993369341</longitud>
<lineas>1</lineas>
</metro><metro>
<nombre>Beniferri</nombre>
<id>54</id>
<latitud>39.4910316467</latitud>
<longitud>-0.3993369341</longitud>
<lineas>1</lineas>
</metro><metro>
<nombre>Beniferri</nombre>
<id>54</id>
<latitud>39.4910316467</latitud>
<longitud>-0.3993369341</longitud>
<lineas>1</lineas>
</metro><metro>
<nombre>Beniferri</nombre>
<id>54</id>
<latitud>39.4910316467</latitud>
<longitud>-0.3993369341</longitud>
<lineas>1</lineas>
</metro><metro>
<nombre>Campament</nombre>
<id>59</id>
<latitud>39.4958457947</latitud>
<longitud>-0.4353230000</longitud>
<lineas>1</lineas>
</metro><metro>
<nombre>Campament</nombre>
<id>59</id>
<latitud>39.4958457947</latitud>
<longitud>-0.4353230000</longitud>
<lineas>1</lineas>
</metro><metro>
<nombre>Campament</nombre>
<id>59</id>
<latitud>39.4958457947</latitud>
<longitud>-0.4353230000</longitud>
<lineas>1</lineas>
</metro><metro>
<nombre>Campament</nombre>
<id>59</id>
<latitud>39.4958457947</latitud>
<longitud>-0.4353230000</longitud>
<lineas>1</lineas>
</metro><metro>
<nombre>Campament</nombre>
<id>59</id>
<latitud>39.4958457947</latitud>
<longitud>-0.4353230000</longitud>
<lineas>1</lineas>
</metro><metro>
<nombre>Campament</nombre>
<id>59</id>
<latitud>39.4958457947</latitud>
<longitud>-0.4353230000</longitud>
<lineas>1</lineas>
</metro><metro>
<nombre>Col·legi El Vedat</nombre>
<id>50</id>
<latitud>39.4231338501</latitud>
<longitud>-0.4606527686</longitud>
<lineas>1</lineas>
</metro><metro>
<nombre>Col·legi El Vedat</nombre>
<id>50</id>
<latitud>39.4231338501</latitud>
<longitud>-0.4606527686</longitud>
<lineas>1</lineas>
</metro><metro>
<nombre>Col·legi El Vedat</nombre>
<id>50</id>
<latitud>39.4231338501</latitud>
<longitud>-0.4606527686</longitud>
<lineas>1</lineas>
</metro><metro>
<nombre>Col·legi El Vedat</nombre>
<id>50</id>
<latitud>39.4231338501</latitud>
<longitud>-0.4606527686</longitud>
<lineas>1</lineas>
</metro><metro>
<nombre>Col·legi El Vedat</nombre>
<id>50</id>
<latitud>39.4231338501</latitud>
<longitud>-0.4606527686</longitud>
<lineas>1</lineas>
</metro><metro>
<nombre>Col·legi El Vedat</nombre>
<id>50</id>
<latitud>39.4231338501</latitud>
<longitud>-0.4606527686</longitud>
<lineas>1</lineas>
</metro><metro>
<nombre>Estadi del Llevant</nombre>
<id>130</id>
<latitud>39.4949188232</latitud>
<longitud>-0.3655419946</longitud>
<lineas>6</lineas>
</metro><metro>
<nombre>Estadi del Llevant</nombre>
<id>130</id>
<latitud>39.4949188232</latitud>
<longitud>-0.3655419946</longitud>
<lineas>6</lineas>
</metro><metro>
<nombre>Estadi del Llevant</nombre>
<id>130</id>
<latitud>39.4949188232</latitud>
<longitud>-0.3655419946</longitud>
<lineas>6</lineas>
</metro><metro>
<nombre>Estadi del Llevant</nombre>
<id>130</id>
<latitud>39.4949188232</latitud>
<longitud>-0.3655419946</longitud>
<lineas>6</lineas>
</metro><metro>
<nombre>Estadi del Llevant</nombre>
<id>130</id>
<latitud>39.4949188232</latitud>
<longitud>-0.3655419946</longitud>
<lineas>6</lineas>
</metro><metro>
<nombre>Estadi del Llevant</nombre>
<id>130</id>
<latitud>39.4949188232</latitud>
<longitud>-0.3655419946</longitud>
<lineas>6</lineas>
</metro><metro>
<nombre>Foios</nombre>
<id>6</id>
<latitud>39.5372238159</latitud>
<longitud>-0.3538694382</longitud>
<lineas>3</lineas>
</metro><metro>
<nombre>Foios</nombre>
<id>6</id>
<latitud>39.5372238159</latitud>
<longitud>-0.3538694382</longitud>
<lineas>3</lineas>
</metro><metro>
<nombre>Foios</nombre>
<id>6</id>
<latitud>39.5372238159</latitud>
<longitud>-0.3538694382</longitud>
<lineas>3</lineas>
</metro><metro>
<nombre>Foios</nombre>
<id>6</id>
<latitud>39.5372238159</latitud>
<longitud>-0.3538694382</longitud>
<lineas>3</lineas>
</metro><metro>
<nombre>Foios</nombre>
<id>6</id>
<latitud>39.5372238159</latitud>
<longitud>-0.3538694382</longitud>
<lineas>3</lineas>
</metro><metro>
<nombre>Foios</nombre>
<id>6</id>
<latitud>39.5372238159</latitud>
<longitud>-0.3538694382</longitud>
<lineas>3</lineas>
</metro><metro>
<nombre>Grau - Canyamelar</nombre>
<id>123</id>
<latitud>39.4631004333</latitud>
<longitud>-0.3294720054</longitud>
<lineas>5,6</lineas>
</metro><metro>
<nombre>Grau - Canyamelar</nombre>
<id>123</id>
<latitud>39.4631004333</latitud>
<longitud>-0.3294720054</longitud>
<lineas>5,6</lineas>
</metro><metro>
<nombre>Grau - Canyamelar</nombre>
<id>123</id>
<latitud>39.4631004333</latitud>
<longitud>-0.3294720054</longitud>
<lineas>5,6</lineas>
</metro><metro>
<nombre>Grau - Canyamelar</nombre>
<id>123</id>
<latitud>39.4631004333</latitud>
<longitud>-0.3294720054</longitud>
<lineas>5,6</lineas>
</metro><metro>
<nombre>Grau - Canyamelar</nombre>
<id>123</id>
<latitud>39.4631004333</latitud>
<longitud>-0.3294720054</longitud>
<lineas>5,6</lineas>
</metro><metro>
<nombre>Grau - Canyamelar</nombre>
<id>123</id>
<latitud>39.4631004333</latitud>
<longitud>-0.3294720054</longitud>
<lineas>5,6</lineas>
</metro><metro>
<nombre>Grau - Canyamelar</nombre>
<id>123</id>
<latitud>39.4631004333</latitud>
<longitud>-0.3294720054</longitud>
<lineas>5,6</lineas>
</metro><metro>
<nombre>La Coma</nombre>
<id>111</id>
<latitud>39.5215721130</latitud>
<longitud>-0.4317069948</longitud>
<lineas>4</lineas>
</metro><metro>
<nombre>La Coma</nombre>
<id>111</id>
<latitud>39.5215721130</latitud>
<longitud>-0.4317069948</longitud>
<lineas>4</lineas>
</metro><metro>
<nombre>La Coma</nombre>
<id>111</id>
<latitud>39.5215721130</latitud>
<longitud>-0.4317069948</longitud>
<lineas>4</lineas>
</metro><metro>
<nombre>La Coma</nombre>
<id>111</id>
<latitud>39.5215721130</latitud>
<longitud>-0.4317069948</longitud>
<lineas>4</lineas>
</metro><metro>
<nombre>La Coma</nombre>
<id>111</id>
<latitud>39.5215721130</latitud>
<longitud>-0.4317069948</longitud>
<lineas>4</lineas>
</metro><metro>
<nombre>La Coma</nombre>
<id>111</id>
<latitud>39.5215721130</latitud>
<longitud>-0.4317069948</longitud>
<lineas>4</lineas>
</metro><metro>
<nombre>Les Arenes</nombre>
<id>82</id>
<latitud>39.4689292908</latitud>
<longitud>-0.3257277906</longitud>
<lineas>4,6</lineas>
</metro><metro>
<nombre>Les Arenes</nombre>
<id>82</id>
<latitud>39.4689292908</latitud>
<longitud>-0.3257277906</longitud>
<lineas>4,6</lineas>
</metro><metro>
<nombre>Les Arenes</nombre>
<id>82</id>
<latitud>39.4689292908</latitud>
<longitud>-0.3257277906</longitud>
<lineas>4,6</lineas>
</metro><metro>
<nombre>Les Arenes</nombre>
<id>82</id>
<latitud>39.4689292908</latitud>
<longitud>-0.3257277906</longitud>
<lineas>4,6</lineas>
</metro><metro>
<nombre>Les Arenes</nombre>
<id>82</id>
<latitud>39.4689292908</latitud>
<longitud>-0.3257277906</longitud>
<lineas>4,6</lineas>
</metro><metro>
<nombre>Les Arenes</nombre>
<id>82</id>
<latitud>39.4689292908</latitud>
<longitud>-0.3257277906</longitud>
<lineas>4,6</lineas>
</metro><metro>
<nombre>Les Arenes</nombre>
<id>82</id>
<latitud>39.4689292908</latitud>
<longitud>-0.3257277906</longitud>
<lineas>4,6</lineas>
</metro><metro>
<nombre>Marina Reial Joan Carles I</nombre>
<id>126</id>
<latitud>39.4632530212</latitud>
<longitud>-0.3258508444</longitud>
<lineas>5</lineas>
</metro><metro>
<nombre>Marina Reial Joan Carles I</nombre>
<id>126</id>
<latitud>39.4632530212</latitud>
<longitud>-0.3258508444</longitud>
<lineas>5</lineas>
</metro><metro>
<nombre>Marina Reial Joan Carles I</nombre>
<id>126</id>
<latitud>39.4632530212</latitud>
<longitud>-0.3258508444</longitud>
<lineas>5</lineas>
</metro><metro>
<nombre>Marina Reial Joan Carles I</nombre>
<id>126</id>
<latitud>39.4632530212</latitud>
<longitud>-0.3258508444</longitud>
<lineas>5</lineas>
</metro><metro>
<nombre>Marina Reial Joan Carles I</nombre>
<id>126</id>
<latitud>39.4632530212</latitud>
<longitud>-0.3258508444</longitud>
<lineas>5</lineas>
</metro><metro>
<nombre>Marina Reial Joan Carles I</nombre>
<id>126</id>
<latitud>39.4632530212</latitud>
<longitud>-0.3258508444</longitud>
<lineas>5</lineas>
</metro><metro>
<nombre>Massarrojos</nombre>
<id>76</id>
<latitud>39.5366096497</latitud>
<longitud>-0.4028777778</longitud>
<lineas>1</lineas>
</metro><metro>
<nombre>Massarrojos</nombre>
<id>76</id>
<latitud>39.5366096497</latitud>
<longitud>-0.4028777778</longitud>
<lineas>1</lineas>
</metro><metro>
<nombre>Massarrojos</nombre>
<id>76</id>
<latitud>39.5366096497</latitud>
<longitud>-0.4028777778</longitud>
<lineas>1</lineas>
</metro><metro>
<nombre>Massarrojos</nombre>
<id>76</id>
<latitud>39.5366096497</latitud>
<longitud>-0.4028777778</longitud>
<lineas>1</lineas>
</metro><metro>
<nombre>Massarrojos</nombre>
<id>76</id>
<latitud>39.5366096497</latitud>
<longitud>-0.4028777778</longitud>
<lineas>1</lineas>
</metro><metro>
<nombre>Massarrojos</nombre>
<id>76</id>
<latitud>39.5366096497</latitud>
<longitud>-0.4028777778</longitud>
<lineas>1</lineas>
</metro><metro>
<nombre>Montesol</nombre>
<id>66</id>
<latitud>39.5555725098</latitud>
<longitud>-0.5316972136</longitud>
<lineas>1</lineas>
</metro><metro>
<nombre>Montesol</nombre>
<id>66</id>
<latitud>39.5555725098</latitud>
<longitud>-0.5316972136</longitud>
<lineas>1</lineas>
</metro><metro>
<nombre>Montesol</nombre>
<id>66</id>
<latitud>39.5555725098</latitud>
<longitud>-0.5316972136</longitud>
<lineas>1</lineas>
</metro><metro>
<nombre>Montesol</nombre>
<id>66</id>
<latitud>39.5555725098</latitud>
<longitud>-0.5316972136</longitud>
<lineas>1</lineas>
</metro><metro>
<nombre>Montesol</nombre>
<id>66</id>
<latitud>39.5555725098</latitud>
<longitud>-0.5316972136</longitud>
<lineas>1</lineas>
</metro><metro>
<nombre>Montesol</nombre>
<id>66</id>
<latitud>39.5555725098</latitud>
<longitud>-0.5316972136</longitud>
<lineas>1</lineas>
</metro><metro>
<nombre>Paiporta</nombre>
<id>31</id>
<latitud>39.4322624207</latitud>
<longitud>-0.4180611074</longitud>
<lineas>1,5</lineas>
</metro><metro>
<nombre>Paiporta</nombre>
<id>31</id>
<latitud>39.4322624207</latitud>
<longitud>-0.4180611074</longitud>
<lineas>1,5</lineas>
</metro><metro>
<nombre>Paiporta</nombre>
<id>31</id>
<latitud>39.4322624207</latitud>
<longitud>-0.4180611074</longitud>
<lineas>1,5</lineas>
</metro><metro>
<nombre>Paiporta</nombre>
<id>31</id>
<latitud>39.4322624207</latitud>
<longitud>-0.4180611074</longitud>
<lineas>1,5</lineas>
</metro><metro>
<nombre>Paiporta</nombre>
<id>31</id>
<latitud>39.4322624207</latitud>
<longitud>-0.4180611074</longitud>
<lineas>1,5</lineas>
</metro><metro>
<nombre>Paiporta</nombre>
<id>31</id>
<latitud>39.4322624207</latitud>
<longitud>-0.4180611074</longitud>
<lineas>1,5</lineas>
</metro><metro>
<nombre>Paiporta</nombre>
<id>31</id>
<latitud>39.4322624207</latitud>
<longitud>-0.4180611074</longitud>
<lineas>1,5</lineas>
</metro><metro>
<nombre>Pont de Fusta</nombre>
<id>92</id>
<latitud>39.4817810059</latitud>
<longitud>-0.3731805682</longitud>
<lineas>4</lineas>
</metro><metro>
<nombre>Pont de Fusta</nombre>
<id>92</id>
<latitud>39.4817810059</latitud>
<longitud>-0.3731805682</longitud>
<lineas>4</lineas>
</metro><metro>
<nombre>Pont de Fusta</nombre>
<id>92</id>
<latitud>39.4817810059</latitud>
<longitud>-0.3731805682</longitud>
<lineas>4</lineas>
</metro><metro>
<nombre>Pont de Fusta</nombre>
<id>92</id>
<latitud>39.4817810059</latitud>
<longitud>-0.3731805682</longitud>
<lineas>4</lineas>
</metro><metro>
<nombre>Pont de Fusta</nombre>
<id>92</id>
<latitud>39.4817810059</latitud>
<longitud>-0.3731805682</longitud>
<lineas>4</lineas>
</metro><metro>
<nombre>Pont de Fusta</nombre>
<id>92</id>
<latitud>39.4817810059</latitud>
<longitud>-0.3731805682</longitud>
<lineas>4</lineas>
</metro><metro>
<nombre>Rocafort</nombre>
<id>75</id>
<latitud>39.5287094116</latitud>
<longitud>-0.4075777829</longitud>
<lineas>1</lineas>
</metro><metro>
<nombre>Rocafort</nombre>
<id>75</id>
<latitud>39.5287094116</latitud>
<longitud>-0.4075777829</longitud>
<lineas>1</lineas>
</metro><metro>
<nombre>Rocafort</nombre>
<id>75</id>
<latitud>39.5287094116</latitud>
<longitud>-0.4075777829</longitud>
<lineas>1</lineas>
</metro><metro>
<nombre>Rocafort</nombre>
<id>75</id>
<latitud>39.5287094116</latitud>
<longitud>-0.4075777829</longitud>
<lineas>1</lineas>
</metro><metro>
<nombre>Rocafort</nombre>
<id>75</id>
<latitud>39.5287094116</latitud>
<longitud>-0.4075777829</longitud>
<lineas>1</lineas>
</metro><metro>
<nombre>Rocafort</nombre>
<id>75</id>
<latitud>39.5287094116</latitud>
<longitud>-0.4075777829</longitud>
<lineas>1</lineas>
</metro><metro>
<nombre>Sant Isidre</nombre>
<id>28</id>
<latitud>39.4510345459</latitud>
<longitud>-0.4028027654</longitud>
<lineas>1,5</lineas>
</metro><metro>
<nombre>Sant Isidre</nombre>
<id>28</id>
<latitud>39.4510345459</latitud>
<longitud>-0.4028027654</longitud>
<lineas>1,5</lineas>
</metro><metro>
<nombre>Sant Isidre</nombre>
<id>28</id>
<latitud>39.4510345459</latitud>
<longitud>-0.4028027654</longitud>
<lineas>1,5</lineas>
</metro><metro>
<nombre>Sant Isidre</nombre>
<id>28</id>
<latitud>39.4510345459</latitud>
<longitud>-0.4028027654</longitud>
<lineas>1,5</lineas>
</metro><metro>
<nombre>Sant Isidre</nombre>
<id>28</id>
<latitud>39.4510345459</latitud>
<longitud>-0.4028027654</longitud>
<lineas>1,5</lineas>
</metro><metro>
<nombre>Sant Isidre</nombre>
<id>28</id>
<latitud>39.4510345459</latitud>
<longitud>-0.4028027654</longitud>
<lineas>1,5</lineas>
</metro><metro>
<nombre>Sant Isidre</nombre>
<id>28</id>
<latitud>39.4510345459</latitud>
<longitud>-0.4028027654</longitud>
<lineas>1,5</lineas>
</metro><metro>
<nombre>Serrería</nombre>
<id>86</id>
<latitud>39.4765930176</latitud>
<longitud>-0.3342027664</longitud>
<lineas>4,6</lineas>
</metro><metro>
<nombre>Serrería</nombre>
<id>86</id>
<latitud>39.4765930176</latitud>
<longitud>-0.3342027664</longitud>
<lineas>4,6</lineas>
</metro><metro>
<nombre>Serrería</nombre>
<id>86</id>
<latitud>39.4765930176</latitud>
<longitud>-0.3342027664</longitud>
<lineas>4,6</lineas>
</metro><metro>
<nombre>Serrería</nombre>
<id>86</id>
<latitud>39.4765930176</latitud>
<longitud>-0.3342027664</longitud>
<lineas>4,6</lineas>
</metro><metro>
<nombre>Serrería</nombre>
<id>86</id>
<latitud>39.4765930176</latitud>
<longitud>-0.3342027664</longitud>
<lineas>4,6</lineas>
</metro><metro>
<nombre>Serrería</nombre>
<id>86</id>
<latitud>39.4765930176</latitud>
<longitud>-0.3342027664</longitud>
<lineas>4,6</lineas>
</metro><metro>
<nombre>Serrería</nombre>
<id>86</id>
<latitud>39.4765930176</latitud>
<longitud>-0.3342027664</longitud>
<lineas>4,6</lineas>
</metro><metro>
<nombre>Tossal del Rei</nombre>
<id>132</id>
<latitud>39.4959526062</latitud>
<longitud>-0.3725369871</longitud>
<lineas>6</lineas>
</metro><metro>
<nombre>Tossal del Rei</nombre>
<id>132</id>
<latitud>39.4959526062</latitud>
<longitud>-0.3725369871</longitud>
<lineas>6</lineas>
</metro><metro>
<nombre>Tossal del Rei</nombre>
<id>132</id>
<latitud>39.4959526062</latitud>
<longitud>-0.3725369871</longitud>
<lineas>6</lineas>
</metro><metro>
<nombre>Tossal del Rei</nombre>
<id>132</id>
<latitud>39.4959526062</latitud>
<longitud>-0.3725369871</longitud>
<lineas>6</lineas>
</metro><metro>
<nombre>Tossal del Rei</nombre>
<id>132</id>
<latitud>39.4959526062</latitud>
<longitud>-0.3725369871</longitud>
<lineas>6</lineas>
</metro><metro>
<nombre>Tossal del Rei</nombre>
<id>132</id>
<latitud>39.4959526062</latitud>
<longitud>-0.3725369871</longitud>
<lineas>6</lineas>
</metro><metro>
<nombre>València Sud</nombre>
<id>30</id>
<latitud>39.4408111572</latitud>
<longitud>-0.4106472135</longitud>
<lineas>1,5</lineas>
</metro><metro>
<nombre>València Sud</nombre>
<id>30</id>
<latitud>39.4408111572</latitud>
<longitud>-0.4106472135</longitud>
<lineas>1,5</lineas>
</metro><metro>
<nombre>València Sud</nombre>
<id>30</id>
<latitud>39.4408111572</latitud>
<longitud>-0.4106472135</longitud>
<lineas>1,5</lineas>
</metro><metro>
<nombre>València Sud</nombre>
<id>30</id>
<latitud>39.4408111572</latitud>
<longitud>-0.4106472135</longitud>
<lineas>1,5</lineas>
</metro><metro>
<nombre>València Sud</nombre>
<id>30</id>
<latitud>39.4408111572</latitud>
<longitud>-0.4106472135</longitud>
<lineas>1,5</lineas>
</metro><metro>
<nombre>València Sud</nombre>
<id>30</id>
<latitud>39.4408111572</latitud>
<longitud>-0.4106472135</longitud>
<lineas>1,5</lineas>
</metro><metro>
<nombre>València Sud</nombre>
<id>30</id>
<latitud>39.4408111572</latitud>
<longitud>-0.4106472135</longitud>
<lineas>1,5</lineas>
</metro>